[
    {
        "course_id":1954,
        "center_id":30,
        "ed_center":"Great Lakes Regional OTI Education Center - University of Cincinnati",
        "title":"#7110 Safe Bolting: Principles and Practices",
        "desc_link":"",
        "location":"UC Reading Campus, 2nd Fl",
        "address":"2180 E. Galbraith Rd.",
        "city":"Cincinnati",
        "state":"OH",
        "start":"03/29/0201",
        "end":"03/29/2012",
        "cmpoints":1.17,
        "ceupoints":".7",
        "tuition":"   $195.00",
        "regUrl":"1.800.207.9399"
    },
    {
        "course_id":2675,
        "center_id":33,
        "ed_center":"Atlantic OSHA Education Center - Universidad de Metropolotania",
        "title":"#3095 Electrical Standards",
        "desc_link":"",
        "location":"gggggg",
        "address":"gggggg",
        "city":"ggggggggggg",
        "state":"AK",
        "start":"01/01/1012",
        "end":"01/01/2012",
        "cmpoints":0,
        "ceupoints":0,
        "tuition":"      $.00",
        "regUrl":"ggggggggggggg"
    },
    {
        "course_id":2663,
        "center_id":33,
        "ed_center":"Atlantic OSHA Education Center - Universidad de Metropolotania",
        "title":"#3095 Electrical Standards",
        "desc_link":"",
        "location":"qqqqqqqq",
        "address":"qqqqqqqqqqq",
        "city":"qqqqqqqqq",
        "state":"AK",
        "start":"01/01/2011",
        "end":"01/01/2011",
        "cmpoints":0,
        "ceupoints":0,
        "tuition":"      $.00",
        "regUrl":"qqqqqqqqqqqqqqq"
    },
    {
        "course_id":2625,
        "center_id":33,
        "ed_center":"Atlantic OSHA Education Center - Universidad de Metropolotania",
        "title":"#502 Update for Construction Industry Outreach Trainers",
        "desc_link":"",
        "location":"testing",
        "address":"testing",
        "city":"testing",
        "state":"MA",
        "start":"01/01/2011",
        "end":"02/01/2012",
        "cmpoints":0,
        "ceupoints":0,
        "tuition":"      $.00",
        "regUrl":"testing"
    },
    {
        "course_id":2665,
        "center_id":33,
        "ed_center":"Atlantic OSHA Education Center - Universidad de Metropolotania",
        "title":"#3095 Electrical Standards",
        "desc_link":"",
        "location":"rrrrrrr",
        "address":"rrrrrrr",
        "city":"rrrrrrrr",
        "state":"IA",
        "start":"01/01/2011",
        "end":"02/02/2012",
        "cmpoints":0,
        "ceupoints":0,
        "tuition":"      $.00",
        "regUrl":"rrrrrrrrrr"
    },
    {
        "course_id":2751,
        "center_id":40,
        "ed_center":"University of Washington",
        "title":"#2015 Hazardous Materials",
        "desc_link":"",
        "location":"Roosevelt Building",
        "address":"4225 Roosevelt Way NE, Suite 100",
        "city":"Seattle",
        "state":"WA",
        "start":"06/03/2013",
        "end":"06/06/2013",
        "cmpoints":4.34,
        "ceupoints":2.6,
        "tuition":"   $650.00",
        "regUrl":"https://osha.deohs.washington.edu/coursedetail.cfm?courseid=2763"
    },
    {
        "course_id":2735,
        "center_id":40,
        "ed_center":"University of Washington",
        "title":"#6000 Collateral Duty Course for Other Federal Agencies",
        "desc_link":"",
        "location":"Sheet Metals Institute",
        "address":"2379 NE 178th Ave.",
        "city":"Portland",
        "state":"OR",
        "start":"06/10/2013",
        "end":"06/13/2013",
        "cmpoints":3.84,
        "ceupoints":2.6,
        "tuition":"   $650.00",
        "regUrl":"https://osha.deohs.washington.edu/coursedetail.cfm?courseid=2821"
    },
    {
        "course_id":2768,
        "center_id":40,
        "ed_center":"University of Washington",
        "title":"#501 Trainer Course in Occupational Safety and Health Standards for General Industry",
        "desc_link":"",
        "location":"Roosevelt Building",
        "address":"4225 Roosevelt Way NE, Suite 100",
        "city":"Seattle",
        "state":"WA",
        "start":"06/10/2013",
        "end":"06/13/2013",
        "cmpoints":4.34,
        "ceupoints":2.6,
        "tuition":"   $675.00",
        "regUrl":"https://osha.deohs.washington.edu/coursedetail.cfm?courseid=2750"
    },
    {
        "course_id":2795,
        "center_id":40,
        "ed_center":"University of Washington",
        "title":"#7500 Introduction to Safety and Health Management",
        "desc_link":"",
        "location":"Roosevelt Building",
        "address":"4225 Roosevelt Way NE, Suite 100",
        "city":"Seattle",
        "state":"WA",
        "start":"06/24/2013",
        "end":"06/24/2013",
        "cmpoints":".5",
        "ceupoints":".4",
        "tuition":"   $125.00",
        "regUrl":"https://osha.deohs.washington.edu/coursedetail.cfm?courseid=2816"
    },
    {
        "course_id":2794,
        "center_id":40,
        "ed_center":"University of Washington",
        "title":"#7500 Introduction to Safety and Health Management",
        "desc_link":"",
        "location":"Roosevelt Building",
        "address":"4225 Roosevelt Way NE, Suite 100",
        "city":"Seattle",
        "state":"WA",
        "start":"06/25/2013",
        "end":"06/25/2013",
        "cmpoints":1.17,
        "ceupoints":".8",
        "tuition":"   $250.00",
        "regUrl":"https://osha.deohs.washington.edu/coursedetail.cfm?courseid=2813"
    }
]